{
"techcase_locations": [
	{
		"id" : 3299,
		"name" : "Lilla P",
		"latitude" : 59.339846,
		"longitude" : 18.080455,
		"address" : "Karlavägen 61",
		"zip" : "114 49",
		"country" : "Sweden",
		"city" : "Stockholm",
		"created_date" : "2016-06-27T10:04:31Z",
		"timezone" : "Europe/Stockholm",
		"description" : "Välkommen till Lilla P, ett mysigt östermalmscafé där du kan njuta av allt från en skön frukost till sallader och soppor.",
		"currency" : "SEK",
		"currency_string" : "kr",
		"website" : null,
		"website_short" : null,
		"logo_url" : "https://cloudinary.com/console/media_library#/dialog/image/upload/Companies%2FLillaP%2FLilla-P-CHD"
	},
	{
		"id" : 3298,
		"name" : "Carotte Deli & Wine",
		"latitude" : 59.3337943,
		"longitude" : 18.0738289,
		"address" : "Birger Jarlspassagen",
		"zip" : "0",
		"country" : "Sweden",
		"city" : "Stockholm",
		"created_date" : "2016-06-27T09:56:57Z",
		"timezone" : "Europe/Stockholm",
		"description" : "Välkommen till Deli & Wine by Carotte. Inne i Birger Jarlspassagen finns en take away-bar med olika matlådor, wraps och sallader. Du hittar även hembakat surdegsbröd, bullar och mycket annat.",
		"currency" : "SEK",
		"currency_string" : "kr",
		"website" : "http://www.carotte.se",
		"website_short" : "carotte.se",
		"logo_url" : "http://res.cloudinary.com/karmalicious-ab/image/upload/v1482146132/Companies/Carotte/Carotte-CHD.png"
	},
	{
		"id" : 3400,
		"name" : "Mealprep",
		"latitude" : 59.3361,
		"longitude" : 18.062032,
		"address" : "Olof Palmes Gata 13",
		"zip" : "11337",
		"country" : "Sweden",
		"city" : "Stockholm",
		"created_date" : "2017-02-20T16:22:30Z",
		"timezone" : "Europe/Stockholm",
		"description" : "En matlåda",
		"currency" : "SEK",
		"currency_string" : "kr",
		"website" : null,
		"website_short" : null,
		"logo_url" : "http://res.cloudinary.com/karmalicious-ab/image/upload/v1482146004/Companies/mealprep/Mealprep-CHD.png"
	},
	{
		"id" : 3291,
		"name" : "SUP46 Startup Café",
		"latitude" : 59.334922,
		"longitude" : 18.067417,
		"address" : "Regeringsgatan 65",
		"zip" : "111 57",
		"country" : "Sweden",
		"city" : "Stockholm",
		"created_date" : "2016-05-30T13:40:55Z",
		"timezone" : "Europe/Stockholm",
		"description" : "Startup Cafe by SUP46 är en öppen mötesplats för hela startupcommunityt. Det är också den perfekta platsen för nyfikna besökare att bli en del av den svenska startupscenen. Kom förbi på en frukost, lunch eller fika!",
		"currency" : "SEK",
		"currency_string" : "kr",
		"website" : null,
		"website_short" : null,
		"logo_url" : "http://res.cloudinary.com/karmalicious-ab/image/upload/v1482146251/Companies/SUP46/Sup46-Cafe-CHD.png"
	}
]}
